city,city_en,id,area,lon,lat
חברון,hebron,3400,מרכז,35.09982600000001,31.532569
אעצם,A'SAM,963,דרום,34.903102,31.295816
אבירים,ABBIRIM,1220,צפון,35.286044,33.038086
אבו עבדון,ABU ABDUN,958,דרום,34.841655,31.30139699999999
אבו עמאר,ABU AMMAR,1042,דרום,34.954032,31.138356
אבו עמרה,ABU AMRE,932,דרום,34.872739,31.282188
אבו גוש,ABU GHOSH,472,מרכז,35.109193,31.806293
אבו ג'ווייעד,ABU JUWEI'ID,967,דרום,35.072843,31.180663
אבו קורינאת,ABU QUREINAT,968,דרום,34.952003,31.103115
אבו קרינאת,ABU QUREINAT,1342,דרום,34.952003,31.103115
אבו רובייעה,ABU RUBEI'A,966,דרום,34.851612,31.046051
אבו רוקייק,ABU RUQAYYEQ,961,דרום,34.863897,31.25954
אבו סנאן,ABU SINAN,473,צפון,35.171969,32.95803
אבו סריחאן,ABU SUREIHAN,935,דרום,34.881407,31.254333
אבו תלול,ABU TULUL,1375,דרום,34.913514,31.142612
אדמית,ADAMIT,1068,צפון,35.20951,33.078842
עדנים,ADANIM,2035,מרכז,34.909148,32.138798
אדרת,ADDERET,1123,דרום-מרכז,34.99444,31.659715
אדירים,ADDIRIM,113,צפון,35.271637,32.54894100000001
עדי,ADI,1199,צפון,35.173412,32.782353
אדורה,ADORA,3759,דרום-מרכז,35.017634,31.552219
אדורים,ADORAYIM,3987,מרכז,34.751944,31.609538
אפיניש,AFEINISH,959,דרום,34.996386,31.316183
אפק,AFEQ,313,צפון,35.12778,32.838316
אפיק,AFIQ,4301,צפון,35.702994,32.779428
אפיקים,AFIQIM,176,צפון,35.57773,32.680564
עפולה,AFULA,7700,צפון,35.287922,32.610493
עגור,AGUR,794,דרום-מרכז,34.912024,31.697475
אחווה,AHAWA,1157,דרום,34.767848,31.742893
אחיעזר,AHI'EZER,797,מרכז,34.871821,31.981671
אחיהוד,AHIHUD,785,צפון,35.171715,32.907405
אחיסמך,AHISAMAKH,804,מרכז,34.908576,31.931906
אחיטוב,AHITUV,850,צפון-מרכז,34.990826,32.387701
אחוזם,AHUZZAM,821,דרום,34.770151,31.552682
אחוזת ברק,AHUZZAT BARAQ,1330,צפון,35.338893,32.643101
עכו,AKKO,7600,צפון,35.082678,32.933052
אל סייד,AL SAYYID,1359,דרום,34.916298,31.281719
אל עריאן,AL-ARYAN,1316,צפון,35.125094,32.498076
אל עזי,AL-AZY,1339,דרום,34.814254,31.71886799999999
עלי זהב,ALE ZAHAV,3727,צפון-מרכז,35.064135,32.072227
אלפי מנשה,ALFE MENASHE,3750,מרכז,35.014858,32.170631
אלון הגליל,ALLON HAGALIL,1182,צפון,35.220294,32.756874
אלון שבות,ALLON SHEVUT,3604,מרכז,35.125256,31.654871
אלוני אבא,ALLONE ABBA,429,צפון,35.172028,32.730945
אלוני הבשן,ALLONE HABASHAN,4017,צפון,35.838507,33.044087
אלוני יצחק,ALLONE YIZHAQ,868,צפון,35.00519999999999,32.509997
אלונים,ALLONIM,285,צפון,35.143399,32.721459
עלמה,ALMA,688,צפון,35.499636,33.05186
אלמגור,ALMAGOR,1125,צפון,35.60231,32.912709
אלמוג,ALMOG,3556,מרכז,34.851612,31.046051
עלמון,ALMON,3715,מרכז,35.296764,31.832068
עלומים,ALUMIM,1146,דרום,34.514711,31.453049
אלומה,ALUMMA,1145,דרום,34.742872,31.65204099999999
אלומות,ALUMMOT,330,צפון,35.546088,32.706628
אמציה,AMAZYA,23,דרום,34.914463,31.531176
עמיר,AMIR,319,צפון,35.6198305,33.17772610000001
אמירים,AMIRIM,1064,צפון,35.45036500000001,32.937351
עמיעד,AMMI'AD,385,צפון,35.54052100000001,32.930354
עמיעוז,AMMI'OZ,318,דרום,34.413404,31.248463
עמיחי,AMMIHAY,3824,מרכז,34.8566641,31.9352899
עמינדב,AMMINADAV,779,מרכז,35.142428,31.75170499999999
עמיקם,AMMIQAM,773,צפון,35.020326,32.564626
אמנון,AMNUN,1253,צפון,35.571136,32.904989
עמקה,AMQA,708,צפון,35.161807,32.977664
עמוקה,AMUQQA,1212,צפון,35.524801,32.997669
אניעם,ANI'AM,4012,צפון,35.739718,32.956638
ערערה,AR'ARA,637,צפון,35.097292,32.496323
ערערה בנגב,AR'ARA-BANEGEV,1192,דרום,35.0333713,31.1654944
ערד,ARAD,2560,דרום,35.2152179,31.26125469999999
עראמשה,ARAMSHA,1246,צפון,35.228839,33.088834
ארבל,ARBEL,701,צפון,35.486453,32.812247
ארגמן,ARGAMAN,3598,צפון,34.851612,31.046051
אריאל,ARI'EL,3570,צפון-מרכז,35.1745145,32.1046376
ערב אל נעים,ARRAB AL NAIM,1335,צפון,35.290128,32.888073
עראבה,ARRABE,531,צפון,35.3361947,32.8530087
ארסוף,ARSUF,1324,צפון-מרכז,34.815977,32.212841
ערוגות,ARUGOT,593,דרום,34.77624,31.732798
עשהאל,ASA'EL,3861,מרכז,35.0437082,31.373292
אסד,ASAD,960,דרום,34.851612,31.046051
אספר,ASEFAR,3754,מרכז,34.851612,31.046051
עשרת,ASERET,591,מרכז,34.747459,31.824913
אשלים,ASHALIM,1152,דרום,34.699674,30.964245
אשדוד,ASHDOD,70,דרום-מרכז,34.655314,31.804381
אשדות יעקב,ASHDOT YA'AQOV,199,צפון,35.579637,32.65877
אשרת,ASHERAT,1256,צפון,35.1557,32.971645
אשקלון,ASHQELON,7100,דרום,34.5742523,31.6687885
עטאוונה,ATAWNE,969,דרום,34.926949,31.301882
עטרת,ATERET,3658,מרכז,34.851612,31.046051
עתלית,ATLIT,53,צפון,34.9458283,32.6960656
אטרש,ATRASH,965,דרום,34.948716,31.264161
עצמון שגב,ATSMON-SEGEV,917,צפון,35.252335,32.865802
עבדון,AVDON,892,צפון,35.179128,33.048792
אבנת,AVENAT,3786,מרכז,35.436945,31.679039
אביאל,AVI'EL,679,צפון,34.993493,32.531346
אביעזר,AVI'EZER,1070,דרום-מרכז,35.018821,31.681996
אביגיל,AVIGAYIL,3869,מרכז,34.851612,31.046051
אביגדור,AVIGEDOR,819,דרום,34.740369,31.711901
אביחיל,AVIHAYIL,175,צפון-מרכז,34.871229,32.350708
אביטל,AVITAL,2052,צפון,35.306412,32.557676
אביבים,AVIVIM,1115,צפון,35.470338,33.089381
אבני איתן,AVNE ETAN,4011,צפון,35.765777,32.824808
אבני חפץ,AVNE HEFEZ,3793,צפון-מרכז,35.074551,32.284628
אבשלום,AVSHALOM,1311,דרום,34.3312,31.195397
אבטליון,AVTALYON,1275,צפון,35.350442,32.835781
עיינות,AYANOT,156,מרכז,34.768097,31.91579999999999
איילת השחר,AYYELET HASHAHAR,77,צפון,35.576732,33.021115
עזריה,AZARYA,711,מרכז,34.911872,31.890495
אזור,AZOR,565,מרכז,34.8058575,32.0245041
עזריאל,AZRI'EL,837,צפון-מרכז,34.971133,32.262841
עזריקם,AZRIQAM,817,דרום,34.694818,31.751695
בחן,BAHAN,2043,צפון-מרכז,35.018542,32.351831
בלפוריה,BALFURIYYA,94,צפון,35.296281,32.629988
באקה אל גרביה,BAQA AL-GHARBIYYE,6000,צפון,35.035289,32.419305
בר גיורא,BAR GIYYORA,823,דרום-מרכז,35.073414,31.729683
בר כוכבא,BAR KOKHVA,3499,מרכז,34.8856541,32.0943952
בר יוחאי,BAR YOHAY,1191,צפון,35.44819,32.997704
ברעם,BAR'AM,667,צפון,35.433235,33.058979
ברק,BARAQ,141,צפון,35.265291,32.542821
ברקת,BAREQET,2038,מרכז,34.943179,32.018344
ברקן,BARQAN,3654,צפון-מרכז,35.106008,32.109487
ברקאי,BARQAY,617,צפון,35.031044,32.476096
"בסמ""ה",BASMA,1326,צפון,35.103199,32.52940100000001
בסמת טבעון,BASMAT TAB'UN,944,צפון,35.1532,32.736287
בת עין,BAT AYIN,3794,מרכז,34.851612,31.046051
בת הדר,BAT HADAR,1323,דרום,34.597146,31.648125
בת חפר,BAT HEFER,1319,צפון-מרכז,35.013729,32.333714
בת חן,BAT HEN,1361,צפון-מרכז,34.872388,32.360194
בת שלמה,BAT SHELOMO,33,צפון,35.003837,32.600335
בת ים,BAT YAM,6200,מרכז,34.752885,32.0151439
בצרה,BAZRA,389,צפון-מרכז,34.878123,32.214541
באר מילכה,BE'ER MILKA,1278,דרום,34.405643,30.934112
באר אורה,BE'ER ORA,21,דרום,34.987218,29.710166
באר שבע,BE'ER SHEVA,9000,דרום,34.7867691,31.2521018
באר טוביה,BE'ER TUVEYA,155,דרום,34.7244494,31.7343796
באר יעקב,BE'ER YA'AQOV,2530,מרכז,34.83904,31.943507
בארי,BE'ERI,399,דרום,34.492567,31.424513
בארות יצחק,BE'EROT YIZHAQ,450,מרכז,34.910221,32.042025
בארותיים,BE'EROTAYIM,697,צפון-מרכז,34.98343,32.321039
באר גנים,BEER GANNIM,1376,דרום,34.610934,31.7003539
בית ג'ן,BEIT JANN,480,צפון,35.496506,32.71101
בן עמי,BEN AMMI,712,צפון,35.122218,33.005369
בן שמן,BEN SHEMEN,2013,מרכז,34.927831,31.959019
בן זכאי,BEN ZAKKAY,760,מרכז,34.7269959,31.8573529
בניה,BENAYA,685,מרכז,34.751793,31.84344399999999
בני עטרות,BENE ATAROT,448,מרכז,34.910146,32.02147
"בני עי""ש",BENE AYISH,1066,מרכז,34.7599195,31.789097
בני ברק,BENE BERAQ,6100,מרכז,34.835226,32.084932
בני דרום,BENE DAROM,592,מרכז,34.691609,31.82087
בני דרור,BENE DEROR,386,צפון-מרכז,34.901791,32.261795
בני נצרים,BENE NEZARIM,1363,דרום,34.316403,31.143513
בני ראם,BENE RE'EM,588,מרכז,34.790463,31.769972
בני יהודה,BENE YEHUDA,4015,צפון,35.69107,32.798262
בני ציון,BENE ZIYYON,418,צפון-מרכז,34.8652632,32.2185321
בקעות,BEQA'OT,3612,צפון,35.22078700000001,31.759335
בקוע,BEQOA,864,דרום-מרכז,34.924732,31.827899
ברכה,BERAKHA,3710,צפון-מרכז,34.851612,31.046051
ברכיה,BEREKHYA,746,דרום,34.624296,31.66804699999999
ברור חיל,BEROR HAYIL,428,דרום,34.646547,31.55698499999999
ברוש,BEROSH,2060,דרום,34.634978,31.370721
בית אלפא,BET ALFA,95,צפון,35.430499,32.516357
בית עריף,BET ARIF,604,מרכז,34.935103,31.995352
בית אריה,BET ARYE,3652,מרכז,35.049472,32.040059
בית ברל,BET BERL,1076,מרכז,34.9260732,32.1997359
בית דגן,BET DAGAN,466,מרכז,34.8295485,32.002465
בית אל,BET EL,3574,מרכז,35.222734,31.94159999999999
בית אלעזרי,BET EL'AZARI,562,מרכז,34.8005109,31.8456267
בית עזרא,BET EZRA,756,דרום,34.657514,31.736402
בית גמליאל,BET GAMLI'EL,571,מרכז,34.760947,31.856128
בית גוברין,BET GUVRIN,619,דרום,34.895568,31.61288
בית הערבה,BET HAARAVA,3645,מרכז,34.851612,31.046051
בית העמק,BET HAEMEQ,572,צפון,35.145305,32.971014
בית הגדי,BET HAGADDI,723,דרום,34.607878,31.422839
בית הלוי,BET HALEVI,373,צפון-מרכז,34.930443,32.351596
בית חנן,BET HANAN,159,מרכז,34.775596,31.935211
בית חנניה,BET HANANYA,800,צפון,34.926734,32.529504
בית השיטה,BET HASHITTA,242,צפון,35.43935099999999,32.550874
בית חשמונאי,BET HASHMONAY,1050,מרכז,34.917599,31.890298
בית חירות,BET HERUT,877,צפון-מרכז,34.873765,32.376223
בית הלל,BET HILLEL,322,צפון,35.606515,33.208782
בית חלקיה,BET HILQIYYA,2033,מרכז,34.809698,31.793001
בית חגלה,BET HOGLA,3864,מרכז,34.924252,32.38907
בית חורון,BET HORON,3575,מרכז,35.124097,31.87989
בית לחם הגלילית,BET LEHEM HAGELILIT,430,צפון,35.191271,32.734558
בית מאיר,BET ME'IR,751,דרום-מרכז,35.0368443,31.7938824
בית נחמיה,BET NEHEMYA,784,מרכז,34.953835,31.977142
בית נקופה,BET NEQOFA,672,מרכז,35.126876,31.804392
בית ניר,BET NIR,16,דרום,34.873107,31.647627
בית אורן,BET OREN,317,צפון,35.00632,32.731601
בית עובד,BET OVED,202,מרכז,34.774905,31.921287
בית קמה,BET QAMA,598,דרום,34.762248,31.446566
בית קשת,BET QESHET,365,צפון,35.394952,32.718446
בית רבן,BET RABBAN,848,מרכז,34.729755,31.8166376
בית רימון,BET RIMMON,1162,צפון,35.327738,32.781845
בית שאן,BET SHE'AN,9200,צפון,35.497336,32.497103
בית שערים,BET SHE'ARIM,248,צפון,35.179905,32.697679
בית שמש,BET SHEMESH,2610,דרום-מרכז,34.98668550000001,31.7496628
בית שקמה,BET SHIQMA,747,דרום,34.610074,31.637735
בית עוזיאל,BET UZZI'EL,301,מרכז,34.904858,31.87005
בית ינאי,BET YANNAY,200,צפון-מרכז,34.863507,32.381729
בית יהושע,BET YEHOSHUA,288,צפון-מרכז,34.865418,32.262075
בית יצחק שער חפר,BET YIZHAQ-SH. HEFER,326,צפון-מרכז,34.8899779,32.3333417
בית יוסף,BET YOSEF,265,צפון,35.55277299999999,32.558698
בית זית,BET ZAYIT,710,מרכז,35.161117,31.783058
בית זיד,BET ZEID,353,צפון,35.131109,32.702414
בית זרע,BET ZERA,143,צפון,35.574062,32.689296
בית צבי,BET ZEVI,212,צפון,34.8217109,32.0784145
ביתר עילית,BETAR ILLIT,3780,מרכז,35.1146747,31.7029085
בצת,BEZET,589,צפון,35.132636,33.070047
בענה,BI NE,483,צפון,35.27191699999999,32.929538
בנימינה גבעת עדה,BINYAMINA,9800,צפון,34.955096,32.517078
ביר אל מכסור,BIR EL-MAKSUR,998,צפון,35.2216895,32.7781997
ביר הדאג',BIR HADAGE,1348,דרום,34.709138,31.02316
ביריה,BIRIYYA,368,צפון,35.503096,32.978108
ביתן אהרן,BITAN AHARON,252,צפון-מרכז,34.86956,32.364928
בטחה,BITHA,762,דרום,34.634318,31.333869
ביצרון,BIZZARON,234,דרום,34.727378,31.796565
בני דקלים,BNE DKALIM,1368,דרום,34.917033,31.517188
ברוכין,BRUKHIN,3744,צפון-מרכז,35.094113,32.082231
בועיינה נוג'ידאת,BU'EINE-NUJEIDAT,482,צפון,35.3650625,32.8044208
בוקעאתא,BUQ'ATA,4001,צפון,35.7767723,33.2026572
בורגתה,BURGETA,698,צפון-מרכז,34.963848,32.325972
בוסתן הגליל,BUSTAN HAGALIL,559,צפון,35.08068799999999,32.948636
דבוריה,DABBURYE,489,צפון,35.371153,32.6909133
דפנה,DAFNA,302,צפון,35.638268,33.23075
דחי,DAHI,475,צפון,35.343604,32.622491
דאלית אל כרמל,DALIYAT AL-KARMEL,494,צפון,35.0470183,32.6934814
דליה,DALIYYA,300,צפון,35.076965,32.58925
דלתון,DALTON,431,צפון,35.489911,33.016553
דן,DAN,303,צפון,35.653953,33.239637
דברת,DAVERAT,407,צפון,35.350085,32.646729
דגניה א',DEGANYA ALEF,62,צפון,35.575062,32.706938
דגניה ב',DEGANYA BET,79,צפון,35.577551,32.69907
דיר אל אסד,DEIR AL-ASAD,490,צפון,35.268394,32.93445
דיר חנא,DEIR HANNA,492,צפון,35.3662265,32.8622818
דיר ראפאת,DEIR RAFAT,493,דרום-מרכז,34.947439,31.77652999999999
דמיידה,DEMEIDE,1317,צפון,35.2265642,32.8149647
דקל,DEQEL,1241,דרום,34.346771,31.195908
דריג'את,DERIG'AT,1349,דרום,35.076793,31.301885
דבורה,DEVORA,146,צפון,35.263853,32.552895
דימונה,DIMONA,2200,דרום,35.033363,31.069419
דישון,DISHON,2063,צפון,35.517572,33.082318
דולב,DOLEV,3747,מרכז,34.851612,31.046051
דור,DOR,738,צפון,34.923316,32.607802
דורות,DOROT,336,דרום,34.645725,31.507207
"דוב""ב",DOVEV,1067,צפון,35.407747,33.0508
דביר,DVIR,849,דרום,34.825177,31.411699
אפרת,EFRAT,3650,מרכז,35.152073,31.6570062
עיילבון,EILABUN,530,צפון,35.4038304,32.8348489
עין אל אסד,EIN AL-ASAD,546,צפון,35.401027,32.940754
עין חוד,EIN HOD,1320,צפון,34.999058,32.691361
עין מאהל,EIN MAHEL,532,צפון,35.3553423,32.7234184
עין נקובא,EIN NAQQUBA,521,מרכז,35.11968299999999,31.79391
עין קנייא,EIN QINIYYE,4502,צפון,35.7313062,33.2366802
עין ראפה,EIN RAFA,514,מרכז,35.116514,31.790605
אלעד,EL'AD,1309,מרכז,34.95075,32.04953
אלעזר,EL'AZAR,3618,מרכז,35.143074,31.659676
אל רום,EL-ROM,4003,צפון,35.770095,33.180519
אילת,ELAT,2600,דרום,34.951925,29.557669
עלי,ELI,3765,צפון-מרכז,34.851612,31.046051
אלי עד,ELI-AD,4002,צפון,35.73657499999999,32.806583
אליאב,ELIAV,1365,דרום,34.928414,31.530203
אליפז,ELIFAZ,1248,דרום,35.012094,29.79624799999999
אליפלט,ELIFELET,730,צפון,35.548516,32.947834
אלישמע,ELISHAMA,841,מרכז,34.930461,32.154778
אילון,ELON,294,צפון,35.219162,33.062526
אלון מורה,ELON MORE,3579,צפון-מרכז,34.851612,31.046051
אילות,ELOT,1126,דרום,34.963023,29.580548
אלקנה,ELQANA,3560,מרכז,34.851612,31.046051
אלקוש,ELQOSH,603,צפון,35.326348,33.034294
אליכין,ELYAKHIN,41,צפון,34.925028,32.407659
אליקים,ELYAQIM,682,צפון,35.067613,32.633345
אלישיב,ELYASHIV,204,צפון,34.909945,32.380196
אמונים,EMUNIM,772,דרום,34.674492,31.743885
עין איילה,EN AYYALA,687,צפון,34.944296,32.629963
עין דור,EN DOR,436,צפון,35.416388,32.655468
עין גדי,EN GEDI,2042,דרום,35.383571,31.451191
עין גב,EN GEV,273,צפון,35.640119,32.783393
עין הבשור,EN HABESOR,1240,דרום,34.443446,31.280895
עין העמק,EN HAEMEQ,367,צפון,35.082246,32.629664
עין החורש,EN HAHORESH,167,צפון-מרכז,34.939994,32.385871
עין המפרץ,EN HAMIFRAZ,289,צפון,35.09303999999999,32.902581
"עין הנצי""ב",EN HANAZIV,383,צפון,35.501973,32.47071
עין חרוד,EN HAROD,89,צפון,35.3913041,32.5616446
עין השלושה,EN HASHELOSHA,676,דרום,34.403471,31.351722
עין השופט,EN HASHOFET,270,צפון,35.100445,32.596811
עין חצבה,EN HAZEVA,1053,דרום,35.24534,30.797209
עין הוד,EN HOD,74,צפון,34.982716,32.700292
עין עירון,EN IRON,223,צפון,35.010069,32.484427
עין כרם,EN KAREM-B.S.HAQLA'I,1056,מרכז,35.1623714,31.7671028
עין כרמל,EN KARMEL,426,צפון,34.953676,32.677912
עין שריד,EN SARID,880,צפון-מרכז,34.93418,32.274901
עין שמר,EN SHEMER,139,צפון,35.00673,32.461917
עין תמר,EN TAMAR,1251,דרום,35.37407,30.943594
עין ורד,EN WERED,157,צפון-מרכז,34.930705,32.264467
עין יעקב,EN YA'AQOV,813,צפון,35.229024,33.009312
עין יהב,EN YAHAV,806,דרום,35.2367899,30.6574941
עין זיוון,EN ZIWAN,4503,צפון,35.796313,33.09645
עין צורים,EN ZURIM,622,דרום,34.718683,31.694936
עינת,ENAT,871,מרכז,34.937514,32.081948
ענב,ENAV,3712,צפון-מרכז,35.125198,32.283594
ארז,EREZ,714,דרום,34.564889,31.55984
אשבול,ESHBOL,71,דרום,34.666654,31.44551599999999
אשל הנשיא,ESHEL HANASI,2021,דרום,34.697497,31.326828
אשחר,ESHHAR,1188,צפון,35.299622,32.885084
אשכולות,ESHKOLOT,3722,מרכז,34.4641848,31.2068084
אשתאול,ESHTA'OL,740,דרום-מרכז,35.0105387,31.7793067
איתן,ETAN,37,דרום,34.747909,31.572213
איתנים,ETANIM,886,דרום-מרכז,35.095169,31.7789
אתגר,ETGAR,1298,צפון,35.256072,32.859351
אבן מנחם,EVEN MENAHEM,1081,צפון,35.295219,33.075143
אבן ספיר,EVEN SAPPIR,783,מרכז,35.134991,31.7625
אבן שמואל,EVEN SHEMU'EL,400,דרום,34.762963,31.576429
אבן יהודה,EVEN YEHUDA,182,צפון-מרכז,34.8809634,32.2700426
גלעד,EVEN YIZHAQ,369,צפון,35.076559,32.558075
עברון,EVRON,376,צפון,35.100031,32.991149
אייל,EYAL,716,מרכז,34.978259,32.210711
עזר,EZER,1149,דרום,34.671447,31.736151
עזוז,EZUZ,328,דרום,34.472404,30.792202
פסוטה,FASSUTA,535,צפון,35.308827,33.04782
פוריידיס,FUREIDIS,537,צפון,34.951899,32.597351
געש,GA'ASH,842,צפון-מרכז,34.824411,32.228477
געתון,GA'TON,463,צפון,35.213831,33.006075
גדיש,GADISH,145,צפון,35.24443,32.558844
גדות,GADOT,35,צפון,35.619547,33.018208
גלאון,GAL'ON,393,דרום,34.848898,31.63337099999999
גן הדרום,GAN HADAROM,1072,מרכז,34.69987,31.804056
גן השומרון,GAN HASHOMERON,225,צפון,34.999047,32.465007
גן חיים,GAN HAYYIM,239,מרכז,34.906957,32.195761
גן נר,GAN NER,1274,צפון,35.336254,32.528706
גן שלמה,GAN SHELOMO,144,מרכז,34.798901,31.878777
גן שמואל,GAN SHEMU'EL,72,צפון,34.949311,32.452911
גן שורק,GAN SOREQ,311,מרכז,34.758322,31.944011
גן יבנה,GAN YAVNE,166,מרכז,34.703177,31.7836028
גן יאשיה,GAN YOSHIYYA,734,צפון-מרכז,34.996245,32.349487
גני עם,GANNE AM,218,מרכז,34.903358,32.149838
גני הדר,GANNE HADAR,1103,מרכז,34.857588,31.8782413
גני מודיעין,GANNE MODIIN,3823,מרכז,35.0176666,31.9297927
גני טל,GANNE TAL,1371,מרכז,34.791392,31.788573
גני תקווה,GANNE TIQWA,229,מרכז,34.873121,32.060497
גני יוחנן,GANNE YOHANAN,862,מרכז,34.840827,31.859924
גנות,GANNOT,836,מרכז,34.825877,32.018204
גנות הדר,GANNOT HADAR,549,צפון-מרכז,34.900715,32.32174
גת רימון,GAT RIMMON,128,מרכז,34.881362,32.068105
גת,GAT,340,דרום,34.794112,31.627796
גזית,GAZIT,457,צפון,35.446239,32.639307
גיאה,GE'A,706,דרום,34.602678,31.628467
גאליה,GE'ALYA,853,מרכז,34.765351,31.885644
גאולי תימן,GE'ULE TEMAN,872,צפון,34.900989,32.391837
גאולים,GE'ULIM,379,צפון-מרכז,34.943862,32.296487
גדרה,GEDERA,2550,מרכז,34.7774347,31.8120082
גפן,GEFEN,39,דרום-מרכז,34.878563,31.740766
גליל ים,GELIL YAM,346,מרכז,34.831876,32.158797
גרופית,GEROFIT,1129,דרום,35.064691,29.941617
גשר,GESHER,305,צפון,35.550376,32.621205
גשר הזיו,GESHER HAZIW,574,צפון,35.110563,33.040532
גשור,GESHUR,4022,צפון,35.715708,32.819941
גבע,GEVA,86,צפון,35.37216,32.56653000000001
גבע כרמל,GEVA KARMEL,683,צפון,34.954078,32.662163
גבע בנימין,GEVA BINYAMIN,3763,מרכז,35.273853,31.849999
גבעות בר,GEVA'OT BAR,1344,דרום,34.755541,31.357209
גברעם,GEVAR'AM,342,דרום,34.612156,31.591461
גבת,GEVAT,133,צפון,35.213151,32.67656
גבים,GEVIM,424,דרום,34.598949,31.506273
גבולות,GEVULOT,352,דרום,34.466199,31.211168
גזר,GEZER,370,מרכז,34.8844867,31.8592289
ע'ג'ר,GHAJAR,4501,צפון,34.912024,31.697475
גיבתון,GIBBETON,196,מרכז,34.79906,31.888318
גדעונה,GID'ONA,442,צפון,35.359202,32.549927
גילת,GILAT,736,דרום,34.648934,31.326321
גלגל,GILGAL,3606,צפון,34.851612,31.046051
גילון,GILON,1204,צפון,35.232191,32.904338
גמזו,GIMZO,745,מרכז,34.941128,31.927217
גינתון,GINNATON,863,מרכז,34.913062,31.962801
גיניגר,GINNEGAR,92,צפון,35.259861,32.663419
גינוסר,GINNOSAR,262,צפון,35.523152,32.848666
גיתה,GITTA,1206,צפון,35.249125,32.967233
גיתית,GITTIT,3613,צפון,34.7750537,32.0410244
גבעת אבני,GIV'AT AVNI,1293,צפון,35.436154,32.775382
גבעת ברנר,GIV'AT BRENNER,147,מרכז,34.802254,31.86661
גבעת אלה,GIV'AT ELA,1288,צפון,35.244822,32.722007
גבעת השלושה,GIV'AT HASHELOSHA,870,מרכז,34.920628,32.09634
גבעת חיים,GIV'AT HAYYIM,2018,צפון-מרכז,34.932978,32.396745
"גבעת ח""ן",GIV'AT HEN,207,מרכז,34.875514,32.16758
"גבעת כ""ח",GIV'AT KOAH,802,מרכז,34.938796,32.032091
"גבעת ניל""י",GIV'AT NILI,360,צפון,35.041194,32.549043
גבעת עוז,GIV'AT OZ,703,צפון,35.198004,32.555934
גבעת שפירא,GIV'AT SHAPPIRA,1077,צפון-מרכז,34.875845,32.35763
גבעת שמש,GIV'AT SHEMESH,566,דרום-מרכז,34.95055,31.774189
גבעת שמואל,GIV'AT SHEMU'EL,681,מרכז,34.849206,32.077299
גבעת יערים,GIV'AT YE'ARIM,787,דרום-מרכז,35.09277,31.786089
גבעת ישעיהו,GIV'AT YESHA'YAHU,919,דרום-מרכז,34.943738,31.67168
גבעת יואב,GIV'AT YO'AV,4021,צפון,35.680911,32.801217
גבעת זאב,GIV'AT ZE'EV,3730,מרכז,35.167252,31.861189
גבעתיים,GIV'ATAYIM,6300,מרכז,34.8086113,32.075318
גבעתי,GIV'ATI,793,דרום,34.679478,31.733138
גבעולים,GIV'OLIM,2014,דרום,34.593821,31.397604
גבעון החדשה,GIV'ON HAHADASHA,3644,מרכז,35.159029,31.848896
גבעות עדן,GIV'OT EDEN,1362,דרום-מרכז,35.013876,31.662171
גבעות הרואה,GIV'OT HARO'E,3862,צפון-מרכז,35.101914,31.678899
גיזו,GIZO,1043,דרום-מרכז,34.939653,31.805585
גונן,GONEN,852,צפון,35.6461519,33.1240353
גורן,GOREN,755,צפון,35.233619,33.055566
גורנות הגליל,GORNOT HAGALIL,1219,צפון,35.24967,33.059286
הבונים,HABONIM,675,צפון,34.932704,32.636586
חד נס,HAD-NES,4026,צפון,35.641408,32.927514
הדר עם,HADAR AM,191,צפון-מרכז,34.898945,32.349653
חדרה,HADERA,6500,צפון,34.9196518,32.4340458
חדיד,HADID,618,מרכז,34.932156,31.969429
חפץ חיים,HAFEZ HAYYIM,363,מרכז,34.799739,31.789319
חגי,HAGGAI,3764,מרכז,35.07953699999999,31.49253
חגור,HAGOR,717,מרכז,34.947614,32.138591
הגושרים,HAGOSHERIM,356,צפון,35.623028,33.221485
החותרים,HAHOTERIM,434,צפון,34.957545,32.752311
חיפה,HAIFA,4000,צפון,34.989571,32.7940463
חלוץ,HALUZ,1272,צפון,35.311103,32.951271
המעפיל,HAMA'PIL,377,צפון,34.983146,32.378035
חמדיה,HAMADYA,343,צפון,35.520568,32.519773
חמאם,HAMAM,993,צפון,35.491721,32.828399
חמרה,HAMRA,3609,צפון,34.851612,31.046051
חניתה,HANITA,280,צפון,35.17343,33.087634
חנתון,HANNATON,1257,צפון,35.245063,32.783051
חניאל,HANNI'EL,807,צפון-מרכז,34.947693,32.332803
העוגן,HAOGEN,423,צפון-מרכז,34.923338,32.360437
האון,HAON,702,צפון,35.622665,32.726748
הר אדר,HAR ADAR,3769,מרכז,35.12966,31.824501
הר עמשא,HAR AMASA,1261,דרום,35.101599,31.342717
הר גילה,HAR GILLO,3603,מרכז,35.171491,31.722058
הראל,HAR'EL,464,דרום-מרכז,34.947959,31.808975
הררית,HARARIT,1203,צפון,35.369257,32.845696
חרשים,HARASHIM,1209,צפון,35.328217,32.957737
הרדוף,HARDUF,1249,צפון,35.174663,32.763717
חריש,HARISH,1247,צפון,35.0478887,32.4606442
חרוצים,HARUZIM,1024,צפון-מרכז,34.86477199999999,32.22771
חשמונאים,HASHMONA'IM,3770,מרכז,35.023269,31.93263099999999
הסוללים,HASOLELIM,677,צפון,35.238022,32.751802
חספין,HASPIN,4005,צפון,35.7929907,32.8456305
חבצלת השרון,HAVAZZELET HASHARON,235,צפון-מרכז,34.861819,32.3604
הוואשלה,HAWASHLA,1169,דרום,34.979069,31.09222699999999
היוגב,HAYOGEV,684,צפון,35.207483,32.612753
חצב,HAZAV,700,דרום,34.770572,31.780095
חצרים,HAZERIM,397,דרום,34.717427,31.240603
חצבה,HAZEVA,13,דרום,35.278498,30.767942
חזון,HAZON,1047,צפון,35.395291,32.90658
חצור הגלילית,HAZOR HAGELILIT,2034,צפון,35.543548,32.980382
חצור אשדוד,HAZOR-ASHDOD,406,דרום,34.719366,31.772744
הזורעים,HAZORE'IM,307,צפון,35.499922,32.74814
הזורע,HAZOREA,250,צפון,35.11918,32.644516
חפצי בה,HEFZI-BAH,90,צפון,35.426247,32.518729
חלץ,HELEZ,820,דרום,34.658391,31.57794
חמד,HEMED,801,מרכז,34.841265,32.017992
חרב לאת,HEREV LE'ET,422,צפון,34.917146,32.403526
חרמש,HERMESH,3717,צפון,35.118993,32.423726
חירות,HERUT,162,צפון-מרכז,34.914127,32.240973
הרצליה,HERZELIYYA,6400,מרכז,34.844675,32.162413
חבר,HEVER,1110,צפון,35.264911,32.549097
חיבת ציון,HIBBAT ZIYYON,219,צפון,34.911931,32.397995
הילה,HILLA,1208,צפון,35.244582,33.036175
חיננית,HINNANIT,3643,צפון,35.173181,32.480891
הוד השרון,HOD HASHARON,9700,מרכז,34.8838788,32.149961
הודיות,HODAYOT,1322,צפון,35.435,32.788611
הודיה,HODIYYA,726,דרום,34.639275,31.676356
חופית,HOFIT,115,צפון-מרכז,34.874078,32.386082
חגלה,HOGLA,205,צפון,34.924252,32.38907
חולית,HOLIT,1239,דרום,34.32734,31.230563
חולון,HOLON,6600,מרכז,34.7706369,32.0180655
חורשים,HORESHIM,355,מרכז,34.97102,32.137875
חוסן,HOSEN,662,צפון,35.298723,32.997699
הושעיה,HOSHA'AYA,1186,צפון,35.29522499999999,32.757927
חוג'ייראת,HUJEIRAT,948,צפון,35.271481,32.836596
חולתה,HULATA,253,צפון,35.609244,33.052851
חולדה,HULDA,160,מרכז,34.881523,31.83215
חוקוק,HUQOQ,374,צפון,35.496654,32.878631
חורה,HURA,1303,דרום,34.935863,31.2997256
חורפיש,HURFEISH,496,צפון,35.347106,33.016688
חוסנייה,HUSSNIYYA,1332,צפון,35.322507,32.900573
הוזייל,HUZAYYEL,956,דרום,34.76147479999999,31.4146611
אעבלין,I'BILLIN,529,צפון,35.195795,32.8213416
איבים,IBBIM,338,דרום,34.609697,31.533597
אבטין,IBTIN,652,צפון,35.114601,32.759963
עידן,IDDAN,1175,דרום,35.299946,30.806291
אכסאל,IKSAL,478,צפון,35.3229703,32.6821176
אילניה,ILANIYYA,49,צפון,35.408188,32.753908
עילוט,ILUT,511,צפון,35.261482,32.717249
עמנואל,IMMANU'EL,3660,מרכז,35.136036,32.160688
עיר אובות,IR OVOT,1187,דרום,35.244389,30.808967
אירוס,IRUS,1336,מרכז,34.7766539,31.9285746
עספיא,ISIFYA,534,צפון,35.059087,32.720737
איתמר,ITAMAR,3762,צפון-מרכז,34.851612,31.046051
ג'ת,JAAT,628,צפון,34.794112,31.627796
ג'לג'וליה,JALJULYE,627,מרכז,34.9539749,32.1524568
ירושלים,JERUSALEM,3000,מרכז,35.21371,31.768319
ג'ש,JISH,487,צפון,35.447949,33.021266
ג'סר א זרקא,JISR AZ-ZARQA,541,צפון,34.911569,32.536262
ג'דיידה מכר,JUDEIDE-MAKER,1292,צפון,35.150573,32.928656
ג'ולס,JULIS,485,צפון,35.184243,32.94498
ג'נאביב,JUNNABIB,976,דרום,35.108132,31.287156
כעביה טבאש-חג'אג'רה,KA'ABIYYE-TABBASH-HA,978,צפון,35.184,32.750389
כברי,KABRI,576,צפון,35.147007,33.020985
כאבול,KABUL,504,צפון,35.2071305,32.8700114
כדיתה,KADDITA,1338,צפון,35.468309,33.005954
כדורי,KADOORIE,371,צפון,35.406304,32.70624
כפר ברא,KAFAR BARA,633,מרכז,34.970108,32.130911
כפר כמא,KAFAR KAMA,508,צפון,35.4394617,32.721473
כפר כנא,KAFAR KANNA,509,צפון,35.3400398,32.750474
כפר מנדא,KAFAR MANDA,510,צפון,35.2624051,32.809649
כפר מצר,KAFAR MISR,512,צפון,35.4223211,32.6453528
כפר קרע,KAFAR QARA,654,צפון,35.048811,32.505255
כפר קאסם,KAFAR QASEM,634,מרכז,34.968918,32.1173916
כפר יאסיף,KAFAR YASIF,507,צפון,35.1599957,32.9520318
כחל,KAHAL,1210,צפון,35.511572,32.89046500000001
כלנית,KALLANIT,1229,צפון,35.453972,32.875328
כמון,KAMMON,1201,צפון,35.360916,32.909119
כנף,KANAF,4028,צפון,35.697897,32.870412
כנות,KANNOT,2006,דרום,34.851612,31.046051
כאוכב אבו אל היג'א,KAOKAB ABU AL-HIJA,505,צפון,35.248701,32.831888
כרי דשא,KARE DESHE,38,צפון,35.576718,32.928713
כרכום,KARKOM,1285,צפון,35.606331,32.928271
כרמי קטיף,KARME QATIF,1374,דרום,34.911993,31.537825
כרמי יוסף,KARME YOSEF,1264,מרכז,34.921347,31.848024
כרמי צור,KARME ZUR,3766,מרכז,35.101273,31.609468
כרמל,KARMEL,3656,מרכז,35.182268,31.432786
כרמיאל,KARMI'EL,1139,צפון,35.2932814,32.9085935
כרמיה,KARMIYYA,768,דרום,34.540413,31.60269499999999
כפר אדומים,KEFAR ADUMMIM,3638,מרכז,35.337189,31.827216
כפר אחים,KEFAR AHIM,690,דרום,34.755932,31.745864
כפר אביב,KEFAR AVIV,857,מרכז,34.722577,31.831039
כפר עבודה,KEFAR AVODA,875,צפון-מרכז,34.93966899999999,32.255731
כפר עזה,KEFAR AZZA,845,דרום,34.532291,31.483416
כפר ברוך,KEFAR BARUKH,132,צפון,35.193078,32.646048
כפר ביאליק,KEFAR BIALIK,220,צפון,35.0871929,32.8220488
"כפר ביל""ו",KEFAR BILU,177,מרכז,34.826734,31.870475
כפר בן נון,KEFAR BIN NUN,2010,מרכז,34.947191,31.861679
כפר בלום,KEFAR BLUM,357,צפון,35.607938,33.172527
כפר דניאל,KEFAR DANIYYEL,707,מרכז,34.932306,31.933521
כפר עציון,KEFAR EZYON,3488,מרכז,35.115234,31.649486
כפר גלים,KEFAR GALLIM,427,צפון,34.959511,32.76615
כפר גדעון,KEFAR GID'ON,106,צפון,35.289278,32.644579
כפר גלעדי,KEFAR GIL'ADI,76,צפון,35.574142,33.242078
כפר גליקסון,KEFAR GLIKSON,310,צפון,35.00354,32.505824
"כפר חב""ד",KEFAR HABAD,696,מרכז,34.849103,31.990144
כפר החורש,KEFAR HAHORESH,192,צפון,35.272956,32.701549
כפר המכבי,KEFAR HAMAKKABI,254,צפון,35.114793,32.791804
כפר הנגיד,KEFAR HANAGID,582,מרכז,34.748725,31.887134
כפר חנניה,KEFAR HANANYA,1297,צפון,35.423785,32.915993
כפר הנשיא,KEFAR HANASI,443,צפון,35.602308,32.97466
כפר הנוער הדתי,KEFAR HANO'AR HADATI,890,צפון,35.09615,32.742897
כפר האורנים,KEFAR HAORANIM,3796,מרכז,35.036911,31.919928
"כפר הרי""ף",KEFAR HARIF,888,דרום,34.790928,31.747029
"כפר הרא""ה",KEFAR HARO'E,217,צפון,34.910917,32.391037
כפר חרוב,KEFAR HARUV,4004,צפון,35.66418,32.762357
כפר חסידים א',KEFAR HASIDIM ALEF,112,צפון,35.094212,32.752262
כפר חסידים ב',KEFAR HASIDIM BET,889,צפון,35.08828099999999,32.750515
כפר חיים,KEFAR HAYYIM,193,צפון-מרכז,34.90070900000001,32.353857
כפר הס,KEFAR HESS,187,צפון-מרכז,34.935137,32.247721
כפר חיטים,KEFAR HITTIM,255,צפון,35.50328,32.799998
כפר חושן,KEFAR HOSHEN,609,צפון,35.440171,33.013123
כפר קיש,KEFAR KISH,388,צפון,35.44895,32.666087
"כפר מל""ל",KEFAR MALAL,98,מרכז,34.894744,32.167567
כפר מסריק,KEFAR MASARYK,297,צפון,35.098414,32.891218
כפר מימון,KEFAR MAYMON,1095,דרום,34.53718,31.431401
כפר מנחם,KEFAR MENAHEM,274,דרום,34.835079,31.732077
כפר מונש,KEFAR MONASH,387,צפון-מרכז,34.916426,32.345607
כפר מרדכי,KEFAR MORDEKHAY,764,מרכז,34.756643,31.831504
כפר נטר,KEFAR NETTER,316,צפון-מרכז,34.871979,32.271928
כפר פינס,KEFAR PINES,189,צפון,35.002063,32.482717
כפר ראש הנקרה,KEFAR ROSH HANIQRA,579,צפון,35.113455,33.08609
כפר רוזנואלד,KEFAR ROZENWALD(ZAR.,1130,צפון,34.851612,31.046051
כפר רופין,KEFAR RUPPIN,295,צפון,35.555673,32.457549
כפר רות,KEFAR RUT,1166,מרכז,35.035309,31.910378
כפר סבא,KEFAR SAVA,6900,מרכז,34.90761,32.178195
כפר שמאי,KEFAR SHAMMAY,605,צפון,35.457916,32.955698
כפר שמריהו,KEFAR SHEMARYAHU,267,מרכז,34.823124,32.187123
כפר שמואל,KEFAR SHEMU'EL,743,מרכז,34.934819,31.888259
כפר סילבר,KEFAR SILVER,107,דרום,34.612311,31.675669
כפר סירקין,KEFAR SIRKIN,249,מרכז,34.922763,32.076684
כפר סאלד,KEFAR SZOLD,345,צפון,35.657993,33.196035
כפר תפוח,KEFAR TAPPUAH,3572,צפון-מרכז,35.050973,31.538448
כפר תבור,KEFAR TAVOR,47,צפון,35.4200208,32.687727
כפר טרומן,KEFAR TRUMAN,673,מרכז,34.927696,31.980493
כפר אוריה,KEFAR URIYYA,364,דרום-מרכז,34.944757,31.793399
כפר ויתקין,KEFAR VITKIN,190,צפון-מרכז,34.875308,32.380541
כפר ורבורג,KEFAR WARBURG,320,דרום,34.72868,31.718747
כפר ורדים,KEFAR WERADIM,1263,צפון,35.2628012,32.9969981
כפר יעבץ,KEFAR YA'BEZ,170,צפון-מרכז,34.965463,32.273945
כפר יחזקאל,KEFAR YEHEZQEL,85,צפון,35.360888,32.566949
כפר יהושע,KEFAR YEHOSHUA,140,צפון,35.1515478,32.680966
כפר יונה,KEFAR YONA,168,צפון-מרכז,34.9330201,32.3176357
כפר זיתים,KEFAR ZETIM,786,צפון,35.465165,32.811614
כפר זוהרים,KEFAR ZOHARIM,1325,דרום-מרכז,34.925669,31.622631
כליל,KELIL,1183,צפון,35.199672,32.983567
כמהין,KEMEHIN,1291,דרום,34.430725,30.910327
כרמים,KERAMIM,1198,דרום,34.917879,31.333464
כרם בן שמן,KEREM BEN SHEMEN,88,מרכז,34.934104,31.958896
כרם בן זמרה,KEREM BEN ZIMRA,664,צפון,35.46988899999999,33.039224
כרם ביבנה,KEREM BEYAVNE,1094,מרכז,34.7226127,31.8199341
"כרם מהר""ל",KEREM MAHARAL,580,צפון,34.99145,32.644325
כרם שלום,KEREM SHALOM,1085,דרום,34.284559,31.228281
כסלון,KESALON,859,דרום-מרכז,35.048171,31.774262
ח'ואלד,KHAWALED,1321,צפון,35.15837399999999,32.758894
כנרת,KINNERET,63,צפון,35.56577740000001,32.7223846
כישור,KISHOR,1153,צפון,35.250213,32.946651
כסרא סמיע,KISRA-SUMEI,1296,צפון,35.3038834,32.9646608
כיסופים,KISSUFIM,840,דרום,34.398992,31.374545
כחלה,KOCHLEA,1367,דרום,35.048572,31.287112
כוכב השחר,KOKHAV HASHAHAR,3564,מרכז,34.851612,31.046051
כוכב מיכאל,KOKHAV MIKHA'EL,824,דרום,34.667794,31.631482
כוכב יעקב,KOKHAV YA'AQOV,3779,מרכז,35.242773,31.880152
כוכב יאיר,KOKHAV YA'IR,1224,מרכז,34.9939021,32.2207488
כורזים,KORAZIM,1252,צפון,35.55015,32.911112
כסיפה,KUSEIFE,1059,דרום,35.083681,31.249246
להב,LAHAV,2023,דרום,34.871311,31.379363
להבות הבשן,LAHAVOT HABASHAN,380,צפון,35.6478714,33.1412178
להבות חביבה,LAHAVOT HAVIVA,715,צפון,35.01179,32.395216
לכיש,LAKHISH,24,דרום,34.8429273,31.5615742
לפיד,LAPPID,1310,מרכז,35.032191,31.917522
לפידות,LAPPIDOT,1173,צפון,35.260956,32.959801
לקיה,LAQYE,1060,דרום,34.866219,31.324884
לביא,LAVI,585,צפון,35.440717,32.787648
לבון,LAVON,1207,צפון,35.286475,32.94118
להבים,LEHAVIM,1271,דרום,34.816952,31.373835
שריגים,LI-ON,1114,דרום-מרכז,34.93509,31.678567
לימן,LIMAN,674,צפון,35.111815,33.058732
לבנים,LIVNIM,1230,צפון,35.497479,32.86379
לוד,LOD,7000,מרכז,34.888075,31.951014
לוחמי הגיטאות,LOHAME HAGETA'OT,595,צפון,35.096741,32.962661
לוטן,LOTAN,1255,דרום,35.086776,29.988263
לוטם,LOTEM,1171,צפון,35.35996,32.880858
לוזית,LUZIT,52,דרום-מרכז,34.888222,31.688209
מעגן,MA'AGAN,678,צפון,35.600575,32.706344
מעגן מיכאל,MA'AGAN MIKHA'EL,694,צפון,34.917816,32.55871
מעלה אדומים,MA'ALE ADUMMIM,3616,מרכז,35.297955,31.777369
מעלה עמוס,MA'ALE AMOS,3653,מרכז,35.22936500000001,31.596887
מעלה אפרים,MA'ALE EFRAYIM,3608,צפון,34.851612,31.046051
מעלה גמלא,MA'ALE GAMLA,4008,צפון,35.685966,32.88825600000001
מעלה גלבוע,MA'ALE GILBOA,1127,צפון,35.420637,32.476065
מעלה החמישה,MA'ALE HAHAMISHA,286,דרום-מרכז,35.109406,31.817429
מעלה עירון,MA'ALE IRON,1327,צפון,35.1865314,32.5508302
מעלה לבונה,MA'ALE LEVONA,3752,צפון-מרכז,34.851612,31.046051
מעלה מכמש,MA'ALE MIKHMAS,3651,מרכז,35.305902,31.879131
מעלות תרשיחא,MA'ALOT-TARSHIHA,1063,צפון,35.2768101,33.0148018
מענית,MA'ANIT,344,צפון,35.0278006,32.4581327
מעש,MA'AS,230,מרכז,34.892639,32.063511
מעברות,MA'BAROT,197,צפון-מרכז,34.905733,32.364197
מעגלים,MA'GALIM,1082,דרום,34.598239,31.398859
מעון,MA'ON,3657,מרכז,35.163893,31.414592
מאור,MA'OR,2055,צפון,35.005289,32.425832
מעוז חיים,MA'OZ HAYYIM,272,צפון,35.550767,32.49407
מעין ברוך,MA'YAN BARUKH,416,צפון,35.609359,33.239349
מעין צבי,MA'YAN ZEVI,290,צפון,34.940623,32.568484
מבועים,MABBU'IM,1080,דרום,34.65499399999999,31.44945
מגן,MAGEN,695,דרום,34.427059,31.298108
מגן שאול,MAGEN SHA'UL,1155,צפון,35.306431,32.521471
מגל,MAGGAL,375,צפון,35.036147,32.385556
מגשימים,MAGSHIMIM,722,מרכז,34.9023182,32.0506884
מחניים,MAHANAYIM,308,צפון,35.570375,32.988845
צוקים,MAHANE BILDAD,1262,דרום,35.165443,30.491551
מחנה הילה,MAHANE HILLA,1411,מרכז,34.851612,31.046051
מחנה מרים,MAHANE MIRYAM,1414,דרום,34.851612,31.046051
מחנה טלי,MAHANE TALI,1418,דרום,34.851612,31.046051
מחנה תל נוף,MAHANE TEL NOF,1412,מרכז,34.8195,31.822281
מחנה יפה,MAHANE YAFA,1415,דרום,34.851612,31.046051
מחנה יתיר,MAHANE YATTIR,1196,דרום,35.060671,31.347793
מחנה יהודית,MAHANE YEHUDIT,1413,צפון,34.975849,32.797684
מחנה יוכבד,MAHANE YOKHVED,1416,דרום,34.934344,29.952075
מחסיה,MAHSEYA,776,דרום-מרכז,35.00726,31.748858
מג'ד אל כרום,MAJD AL-KURUM,516,צפון,35.25665,32.920132
מג'דל שמס,MAJDAL SHAMS,4201,צפון,35.772122,33.2690961
מכחול,MAKCHUL,1343,דרום,35.075736,31.288515
מלכיה,MALKIYYA,596,צפון,35.509624,33.098589
מנוף,MANOF,1174,צפון,35.237355,32.853258
מנות,MANOT,1205,צפון,35.195156,33.038709
מנשית זבדה,MANSHIYYET ZABDA,994,צפון,35.192415,32.706219
מרגליות,MARGALIYYOT,843,צפון,35.544354,33.216474
מסעדה,MAS'ADE,4203,צפון,35.7555991,33.2321159
מסעודין אל עזאזמה,MAS'UDIN AL-'AZAZME,939,דרום,34.817449,31.199264
משאבי שדה,MASH'ABBE SADE,421,דרום,34.785029,31.00404199999999
משען,MASH'EN,791,דרום,34.621607,31.656885
משכיות,MASKIYYOT,3785,מרכז,35.502754,32.317865
מסלול,MASLUL,748,דרום,34.590761,31.323677
מסד,MASSAD,1258,צפון,35.423166,32.844172
מסדה,MASSADA,263,צפון,35.597657,32.682305
משואה,MASSU'A,3605,צפון,34.8694061,32.2548908
משואות יצחק,MASSUOT YIZHAQ,620,דרום,34.689968,31.70261
מטע,MATTA,822,דרום-מרכז,35.060571,31.716522
מתן,MATTAN,1315,מרכז,34.97319,32.159377
מתת,MATTAT,1184,צפון,35.35669499999999,33.041684
מתתיהו,MATTITYAHU,3648,מרכז,35.034997,31.929747
מבקיעים,MAVQI'IM,573,דרום,34.577431,31.622518
מזכרת בתיה,MAZKERET BATYA,28,מרכז,34.840016,31.850638
מצליח,MAZLIAH,757,מרכז,34.871278,31.906364
מזור,MAZOR,606,מרכז,34.931373,32.050698
מזרעה,MAZRA'A,517,צפון,35.098934,32.983652
מצובה,MAZZUVA,325,צפון,35.155705,33.062312
מי עמי,ME AMMI,1128,צפון,35.146425,32.504963
מאיר שפיה,ME'IR SHEFEYA,102,צפון,34.8739245,32.101972
מעונה,ME'ONA,570,צפון,35.263626,33.016894
מפלסים,MEFALLESIM,668,דרום,34.561674,31.50220599999999
מגדים,MEGADIM,689,צפון,34.9621003,32.7266265
מגידו,MEGIDDO,586,צפון,35.179972,32.577899
מחולה,MEHOLA,3599,צפון,35.51602,32.365285
מייסר,MEISER,649,צפון,35.042131,32.445246
מכורה,MEKHORA,3614,צפון,35.423623,32.164159
מלאה,MELE'A,164,צפון,35.237528,32.563149
מלילות,MELILOT,2044,דרום,34.595243,31.389897
מנחמיה,MENAHEMYA,48,צפון,35.555195,32.66318529999999
מנרה,MENNARA,347,צפון,35.543728,33.195375
מנוחה,MENUHA,2030,דרום,34.777273,31.656159
מירב,MERAV,1282,צפון,35.422479,32.452041
מרחב עם,MERHAV AM,1340,דרום,34.828175,30.888022
מרחביה,MERHAVYA,97,צפון,35.30725,32.60585
מרכז שפירא,MERKAZ SHAPPIRA,1098,דרום,34.707319,31.696927
מרום גולן,MEROM GOLAN,4101,צפון,35.77707100000001,33.132583
מירון,MERON,607,צפון,35.441643,32.985226
מישר,MESHAR,731,מרכז,34.752588,31.815936
משהד,MESHHED,520,צפון,35.322494,32.738912
מסילת ציון,MESILLAT ZIYYON,742,דרום-מרכז,35.0117254,31.8030178
מסילות,MESILLOT,298,צפון,35.474651,32.497362
מיטל,METAL,1154,צפון,34.851612,31.046051
מיתר,METAR,1268,דרום,34.9435778,31.3280076
מיטב,METAV,2054,צפון,35.300898,32.545509
מטולה,METULA,43,צפון,35.578235,33.277232
מבשרת ציון,MEVASSERET ZIYYON,1015,מרכז,35.151392,31.80495489999999
מבוא ביתר,MEVO BETAR,771,מרכז,35.106656,31.722592
מבוא דותן,MEVO DOTAN,3569,צפון,35.173869,32.420772
מבוא חמה,MEVO HAMMA,4204,צפון,35.655207,32.736701
מבוא חורון,MEVO HORON,3709,מרכז,35.034977,31.849598
מבוא מודיעים,MEVO MODI'IM,1141,מרכז,34.98799899999999,31.933851
מבואות ים,MEVO'OT YAM,1318,צפון-מרכז,34.866797,32.401697
מבואות יריחו,MEVO'OT YERIHO,3825,מרכז,35.4155538,31.9074488
מצדות יהודה,MEZADOT YEHUDA,3745,מרכז,35.11134,31.365586
מיצר,MEZAR,4019,צפון,35.047702,32.440186
מצר,MEZER,648,צפון,35.047702,32.440186
מעיליא,MI'ELYA,518,צפון,35.256304,33.027194
מדרך עוז,MIDRAKH OZ,2029,צפון,35.157976,32.59464800000001
מדרשת בן גוריון,MIDRESHET BEN GURION,1140,דרום,34.7834,30.852297
מדרשת רופין,MIDRESHET RUPPIN,897,צפון-מרכז,34.9122632,32.3423801
מגדל,MIGDAL,65,צפון,35.499849,32.839494
מגדל העמק,MIGDAL HAEMEQ,874,צפון,35.2417497,32.6778114
מגדל עוז,MIGDAL OZ,3561,מרכז,34.851612,31.046051
מגדלים,MIGDALIM,3751,צפון-מרכז,34.851612,31.046051
מכמנים,MIKHMANNIM,1202,צפון,35.32899099999999,32.905865
מכמורת,MIKHMORET,382,צפון-מרכז,34.871551,32.406504
מקווה ישראל,MIQWE YISRA'EL,22,מרכז,34.783333,32.033333
משגב עם,MISGAV AM,378,צפון,35.548499,33.247572
משגב דב,MISGAV DOV,765,מרכז,34.739162,31.819054
משמר איילון,MISHMAR AYYALON,670,מרכז,34.943253,31.872478
משמר דוד,MISHMAR DAWID,563,מרכז,34.900676,31.82355799999999
משמר העמק,MISHMAR HAEMEQ,130,צפון,35.14267299999999,32.610063
משמר הנגב,MISHMAR HANEGEV,395,דרום,34.71796800000001,31.364796
משמר השרון,MISHMAR HASHARON,194,צפון-מרכז,34.904256,32.356305
משמר השבעה,MISHMAR HASHIV'A,729,מרכז,34.822337,32.010891
משמר הירדן,MISHMAR HAYARDEN,732,צפון,35.598271,33.003484
משמר יהודה,MISHMAR YEHUDA,3865,מרכז,34.851612,31.046051
משמרות,MISHMAROT,213,צפון,34.983892,32.486513
משמרת,MISHMERET,425,צפון-מרכז,34.922055,32.227586
מצפה אילן,MITSPE ILAN,1370,צפון,35.068861,32.461378
מבטחים,MIVTAHIM,829,דרום,34.407488,31.242423
מצפה,MIZPA,58,צפון,35.507851,32.789973
"מצפה אבי""ב",MIZPE AVIV,1222,צפון,35.201059,32.837951
מצפה נטופה,MIZPE NETOFA,1190,צפון,35.383501,32.801748
מצפה רמון,MIZPE RAMON,99,דרום,34.8011766,30.6094096
מצפה שלם,MIZPE SHALEM,3610,מרכז,34.851612,31.046051
מצפה יריחו,MIZPE YERIHO,3576,מרכז,35.395409,31.815688
מזרע,MIZRA,104,צפון,35.286404,32.649879
מודיעין עילית,MODI'IN ILLIT,3797,מרכז,34.851612,31.046051
מודיעין מכבים-רעות,MODI'IN-MAKKABBIM-RE,1200,מרכז,35.010397,31.890267
מולדת,MOLEDET,269,צפון,35.438941,32.586196
מורן,MORAN,1163,צפון,35.39481,32.921637
מורשת,MORESHET,1178,צפון,35.231997,32.826132
מוצא עילית,MOZA ILLIT,208,מרכז,35.157,31.793591
מגאר,MUGHAR,481,צפון,35.4091765,32.8872843
מוקייבלה,MUQEIBLE,635,צפון,35.294806,32.514142
נעלה,NA'ALE,3787,מרכז,35.065976,31.962594
נען,NA'AN,158,מרכז,34.859237,31.883208
נערן,NA'ARAN,3620,צפון,34.851612,31.046051
נאעורה,NA'URA,524,צפון,35.391133,32.61468
"נעמ""ה",NAAMA,3713,מרכז,34.9662246,31.8884944
אשבל,NAHAL ESHBAL,1276,צפון,35.30601,32.876984
חמדת,NAHAL HEMDAT,3646,צפון,34.851612,31.046051
נחל עוז,NAHAL OZ,844,דרום,34.497675,31.47267999999999
שיטים,NAHAL SHITTIM,1267,דרום,35.016722,30.176442
נחלה,NAHALA,2045,דרום,34.792817,31.66
נהלל,NAHALAL,80,צפון,35.1964717,32.6903009
נחליאל,NAHALI'EL,3767,מרכז,34.927338,32.444432
נחם,NAHAM,809,דרום-מרכז,35.0035723,31.7664783
נהריה,NAHARIYYA,9100,צפון,35.0980514,33.0085361
נחף,NAHEF,522,צפון,35.3156595,32.9350929
נחשולים,NAHSHOLIM,433,צפון,34.92225,32.61309
נחשון,NAHSHON,777,דרום-מרכז,34.955986,31.831616
נחשונים,NAHSHONIM,705,מרכז,34.947011,32.063236
נצאצרה,NASASRA,1041,דרום,35.032332,31.247033
נטף,NATAF,1254,דרום-מרכז,35.06957999999999,31.831276
נטור,NATUR,4014,צפון,35.752574,32.854068
נווה,NAVE,1366,דרום,34.329827,31.162183
נצרת,NAZARETH,7300,צפון,35.303546,32.699635
נאות גולן,NE'OT GOLAN,4551,צפון,35.693172,32.787026
נאות הכיכר,NE'OT HAKIKKAR,1124,דרום,35.378126,30.933368
נאות מרדכי,NE'OT MORDEKHAY,408,צפון,35.595602,33.159785
נעורים,NE'URIM,186,צפון-מרכז,34.851612,31.046051
נגבה,NEGBA,315,דרום,34.679561,31.662547
נגוהות,NEGOHOT,3724,מרכז,34.983347,31.493077
נחלים,NEHALIM,449,מרכז,34.911998,32.0585313
נהורה,NEHORA,309,דרום,34.704496,31.621321
נחושה,NEHUSHA,59,דרום-מרכז,34.952732,31.628848
ניין,NEIN,523,צפון,35.349399,32.630986
נס עמים,NES AMMIM,1143,צפון,35.121588,32.965465
נס הרים,NES HARIM,825,דרום-מרכז,35.059406,31.74419199999999
נס ציונה,NES ZIYYONA,7200,מרכז,34.801327,31.932111
נשר,NESHER,2500,צפון,35.045039,32.7721793
נטע,NETA,1369,דרום,34.927774,31.477893
נטעים,NETA'IM,174,מרכז,34.775145,31.945689
נתניה,NETANYA,7400,צפון-מרכז,34.853196,32.321458
נתיב העשרה,NETIV HAASARA,1242,דרום,34.539322,31.572407
נתיב הגדוד,NETIV HAGEDUD,3555,צפון,35.443281,31.989412
"נתיב הל""ה",NETIV HALAMED-HE,693,דרום-מרכז,34.982523,31.687184
נתיב השיירה,NETIV HASHAYYARA,792,צפון,35.130745,32.991185
נתיבות,NETIVOT,246,דרום,34.5946466,31.423132
נטועה,NETU'A,1147,צפון,35.323406,33.065387
נבטים,NEVATIM,396,דרום,34.882488,31.219761
נוה צוף,NEVE TSUF,3573,מרכז,35.128876,32.008313
"נווה אטי""ב",NEWE ATIV,4303,צפון,35.740574,33.26202
נווה אבות,NEWE AVOT,926,צפון,34.9742001,32.4728028
נווה דניאל,NEWE DANIYYEL,3725,מרכז,35.143293,31.67632
נווה איתן,NEWE ETAN,296,צפון,35.533119,32.492304
נווה חריף,NEWE HARIF,1279,דרום,35.03649,30.039793
נווה אילן,NEWE ILAN,405,דרום-מרכז,35.080922,31.807585
נווה מיכאל,NEWE MIKHA'EL,1071,דרום-מרכז,35.00671,31.673049
נווה מבטח,NEWE MIVTAH,827,דרום,34.741231,31.806767
נווה שלום,NEWE SHALOM,1259,דרום-מרכז,34.875642,31.953033
נווה אור,NEWE UR,590,צפון,35.554544,32.589025
נווה ים,NEWE YAM,312,צפון,34.93188,32.679769
נווה ימין,NEWE YAMIN,686,מרכז,34.939378,32.171692
נווה ירק,NEWE YARAQ,858,מרכז,34.925488,32.132729
נווה זיו,NEWE ZIV,1314,צפון,35.18433,33.027399
נווה זוהר,NEWE ZOHAR,1057,דרום,35.364771,31.152068
נצר חזני,NEZER HAZZANI,1372,מרכז,34.862554,31.8214
נצר סרני,NEZER SERENI,435,מרכז,34.821191,31.922789
"ניל""י",NILI,3655,מרכז,34.851612,31.046051
נמרוד,NIMROD,4035,צפון,35.750842,33.244978
ניר עם,NIR AM,348,דרום,34.580544,31.518459
ניר עקיבא,NIR AQIVA,2048,דרום,34.646166,31.469933
ניר בנים,NIR BANIM,553,דרום,34.755012,31.671177
ניר דוד,NIR DAWID,256,צפון,35.457622,32.504062
ניר אליהו,NIR ELIYYAHU,808,מרכז,34.949375,32.197593
ניר עציון,NIR EZYON,769,צפון,34.992526,32.699125
ניר גלים,NIR GALLIM,720,מרכז,34.68254,31.82552
"ניר ח""ן",NIR HEN,11,דרום,34.714282,31.608906
ניר משה,NIR MOSHE,2047,דרום,34.630085,31.477456
ניר עוז,NIR OZ,69,דרום,34.402075,31.309697
ניר יפה,NIR YAFE,165,צפון,35.244896,32.568982
ניר ישראל,NIR YISRA'EL,699,דרום,34.638071,31.692156
ניר יצחק,NIR YIZHAQ,402,דרום,34.356702,31.23604
ניר צבי,NIR ZEVI,331,מרכז,34.861529,31.954403
נירים,NIRIM,602,דרום,34.394087,31.33572999999999
נירית,NIRIT,1236,מרכז,34.984822,32.146206
ניצן,NIZZAN,351,דרום,34.630804,31.737518
ניצן ב',NIZZAN B,1419,דרום,34.638235,31.737089
ניצנה,NIZZANA (QEHILAT HIN,1195,דרום,34.4225689,30.885983
ניצני עוז,NIZZANE OZ,851,צפון-מרכז,35.003278,32.306084
ניצני סיני,NIZZANE SINAY,1280,דרום,34.396679,30.903428
ניצנים,NIZZANIM,359,דרום,34.634636,31.717845
נועם,NO'AM,15,דרום,34.788161,31.568567
נוף איילון,NOF AYYALON,1333,מרכז,34.991321,31.871215
נוף הגליל,NOF HAGALIL,1061,צפון,35.324812,32.711539
נופך,NOFEKH,257,מרכז,34.920306,32.043748
נופים,NOFIM,3790,צפון-מרכז,34.851612,31.046051
נופית,NOFIT,1284,צפון,35.148316,32.763374
נוגה,NOGAH,55,דרום,34.69528,31.625691
נוקדים,NOQEDIM,3726,מרכז,34.9733121,32.4429908
נורדיה,NORDIYYA,447,צפון-מרכז,34.896792,32.314656
נוב,NOV,4304,צפון,35.783574,32.832852
נורית,NURIT,833,צפון,35.35575499999999,32.543238
אודם,ODEM,4010,צפון,35.7495651,33.1933716
אופקים,OFAQIM,31,דרום,34.6197998,31.3067541
עופר,OFER,810,צפון,34.983472,32.621882
עופרה,OFRA,3617,מרכז,34.983472,32.621882
אוהד,OHAD,1046,דרום,34.431893,31.238436
עולש,OLESH,737,צפון-מרכז,34.98532100000001,32.331969
אומן,OMEN,1108,צפון,35.241941,32.564279
עומר,OMER,666,דרום,34.8505942,31.264479
אומץ,OMEZ,680,צפון-מרכז,34.993129,32.369216
אור עקיבא,OR AQIVA,1020,צפון,34.919546,32.5103476
אור הגנוז,OR HAGANUZ,1294,צפון,35.446736,33.005183
אור הנר,OR HANER,67,דרום,34.602305,31.556197
אור יהודה,OR YEHUDA,2400,מרכז,34.85617300000001,32.029748
אורה,ORA,780,מרכז,35.150165,31.752109
אורנים,ORANIM,882,צפון,35.109579,32.711224
אורנית,ORANIT,3760,מרכז,34.99081,32.131924
אורות,OROT,2012,דרום,34.7356,31.740364
אורטל,ORTAL,4013,צפון,35.758661,33.086236
עתניאל,OTNI'EL,3748,מרכז,35.028163,31.438812
עוצם,OZEM,32,דרום,34.705108,31.637665
"פעמי תש""ז",PA'AME TASHAZ,2059,דרום,34.692875,31.437967
פלמחים,PALMAHIM,597,מרכז,34.706874,31.932705
פארן,PARAN,1151,דרום,35.155149,30.362646
פרדס חנה כרכור,PARDES HANNA-KARKUR,7800,צפון,34.9742001,32.4728028
פרדסיה,PARDESIYYA,171,צפון-מרכז,34.911731,32.305011
פרוד,PAROD,599,צפון,35.434318,32.933066
פטיש,PATTISH,749,דרום,34.563565,31.3259948
פדיה,PEDAYA,838,מרכז,34.883774,31.857768
פדואל,PEDU'EL,3768,צפון-מרכז,35.052619,32.062479
פדויים,PEDUYIM,750,דרום,34.612069,31.326275
פלך,PELEKH,1185,צפון,35.23361,32.93367
פני חבר,PENE HEVER,3723,מרכז,35.1651,31.487074
פקיעין,PEQI'IN,536,צפון,35.33336329999999,32.9787353
פקיעין חדשה,PEQI'IN HADASHA,281,צפון,35.323408,32.982195
פרזון,PERAZON,2053,צפון,35.311114,32.545456
פרי גן,PERI GAN,1231,דרום,34.355936,31.222015
פסגות,PESAGOT,3659,מרכז,34.851612,31.046051
פתח תקווה,PETAH TIQWA,7900,מרכז,34.887762,32.084041
פתחיה,PETAHYA,839,מרכז,34.88687,31.866957
פצאל,PEZA'EL,3615,צפון,35.443753,32.043492
פורת,PORAT,767,צפון-מרכז,34.948816,32.277081
פוריה עילית,PORIYYA ILLIT,1313,צפון,35.546162,32.732736
פוריה כפר עבודה,PORIYYA-KEFAR AVODA,1104,צפון,35.545563,32.719846
פוריה נווה עובד,PORIYYA-NEWE OVED,1105,צפון,35.53811,32.743763
קבועה,QABBO'A,1234,דרום,35.214754,31.225087
קדרים,QADDARIM,1211,צפון,35.471565,32.898886
קדימה צורן,QADIMA-ZORAN,195,צפון-מרכז,34.9112736,32.2779191
קלנסווה,QALANSAWE,638,צפון-מרכז,34.9810942,32.2854576
קליה,QALYA,3601,מרכז,35.466131,31.749896
קרני שומרון,QARNE SHOMERON,3640,צפון-מרכז,34.851612,31.046051
קוואעין,QAWA'IN,972,דרום,35.026031,31.323303
קציר,QAZIR,1243,צפון,35.10873,32.485178
קצרין,QAZRIN,4100,צפון,35.689865,32.990998
קדר,QEDAR,3781,מרכז,35.310732,31.754384
קדמה,QEDMA,392,דרום,34.7748136,31.7004225
קדומים,QEDUMIM,3557,מרכז,35.157388,32.21239
קלע,QELA,4024,צפון,35.69039,33.131601
קלחים,QELAHIM,414,דרום,34.679092,31.449795
קיסריה,QESARIYYA,1167,צפון,34.9062798,32.5154686
קשת,QESHET,4006,צפון,35.808484,32.980388
קטורה,QETURA,1052,דרום,35.06135500000001,29.97088699999999
קבוצת יבנה,QEVUZAT YAVNE,334,מרכז,34.719103,31.81398699999999
קדמת צבי,QIDMAT ZEVI,4025,צפון,35.69774400000001,33.029485
קדרון,QIDRON,615,מרכז,34.7978926,31.8192978
קרית ענבים,QIRYAT ANAVIM,78,דרום-מרכז,35.120842,31.809913
קרית ארבע,QIRYAT ARBA,3611,מרכז,35.115625,31.529326
קרית אתא,QIRYAT ATTA,6800,צפון,35.119773,32.809144
קרית ביאליק,QIRYAT BIALIK,9500,צפון,35.0916456,32.8408396
קרית עקרון,QIRYAT EQRON,469,מרכז,34.8219576,31.862547
קרית גת,QIRYAT GAT,2630,דרום,34.7722948,31.6104718
קרית מלאכי,QIRYAT MAL'AKHI,1034,דרום,34.7466157,31.7302546
קרית מוצקין,QIRYAT MOTZKIN,8200,צפון,35.0821062,32.8390366
קרית נטפים,QIRYAT NETAFIM,3746,צפון-מרכז,35.112115,32.117299
קרית אונו,QIRYAT ONO,2620,מרכז,34.85885800000001,32.054863
קרית שלמה,QIRYAT SHELOMO,412,צפון-מרכז,34.8620842,32.2342394
קרית שמונה,QIRYAT SHEMONA,2800,צפון,35.5699622,33.20809
קרית טבעון,QIRYAT TIV'ON,2300,צפון,35.124644,32.715288
קרית ים,QIRYAT YAM,9600,צפון,35.070244,32.851004
קרית יערים,QIRYAT YE'ARIM,1137,דרום-מרכז,35.099945,31.802774
קוממיות,QOMEMIYYUT,766,דרום,34.72929999999999,31.662583
קורנית,QORANIT,1179,צפון,35.251883,32.84441200000001
קודיראת א צאנע,QUDEIRAT AS-SANI,964,דרום,35.10564,31.293107
רעננה,RA'ANANA,8700,מרכז,34.8745337,32.1923797
רהט,RAHAT,1161,דרום,34.7533591,31.3951375
רם און,RAM-ON,1069,צפון,35.258657,32.528742
רמת דוד,RAMAT DAWID,135,צפון,35.20403599999999,32.678991
רמת גן,RAMAT GAN,8600,מרכז,34.824785,32.068424
רמת הכובש,RAMAT HAKOVESH,184,מרכז,34.93828999999999,32.218313
רמת השרון,RAMAT HASHARON,2650,מרכז,34.840278,32.137793
רמת השופט,RAMAT HASHOFET,335,צפון,35.094079,32.609356
רמת מגשימים,RAMAT MAGSHIMIM,4701,צפון,35.80658,32.84406600000001
רמת רחל,RAMAT RAHEL,127,מרכז,35.2178825,31.7403163
רמת רזיאל,RAMAT RAZI'EL,460,דרום-מרכז,35.074447,31.773573
רמת ישי,RAMAT YISHAY,122,צפון,35.166003,32.704029
רמת יוחנן,RAMAT YOHANAN,178,צפון,35.122208,32.793457
רמת צבי,RAMAT ZEVI,339,צפון,35.414497,32.591962
ראמה,RAME,543,צפון,35.366515,32.9374389
רמלה,RAMLA,8500,מרכז,34.872938,31.931566
רמות,RAMOT,4702,צפון,34.81131999999999,31.273348
רמות השבים,RAMOT HASHAVIM,206,מרכז,34.881543,32.16509
רמות מאיר,RAMOT ME'IR,735,מרכז,34.855208,31.874444
רמות מנשה,RAMOT MENASHE,445,צפון,35.0586695,32.5977491
רמות נפתלי,RAMOT NAFTALI,372,צפון,35.553313,33.102354
רנן,RANNEN,789,דרום,34.600358,31.33871
רקפת,RAQEFET,1228,צפון,35.264237,32.855569
ראס אל עין,RAS AL-EIN,1334,צפון,35.372703,32.915734
ראס עלי,RAS ALI,990,צפון,35.155512,32.772911
רביד,RAVID,1225,צפון,35.464074,32.850619
רעים,RE'IM,713,דרום,34.458823,31.386159
רגבים,REGAVIM,444,צפון,35.033987,32.52344
רגבה,REGBA,390,צפון,35.099129,32.977493
ריחן,REHAN,3568,צפון,35.135271,32.468752
רחלים,REHELIM,3822,צפון-מרכז,35.257756,32.10246
רחוב,REHOV,854,צפון,35.489598,32.451099
רחובות,REHOVOT,8400,מרכז,34.8115292,31.8943652
ריחאניה,REIHANIYYE,540,צפון,35.487062,33.049922
ריינה,REINE,542,צפון,35.3155447,32.722061
רכסים,REKHASIM,922,צפון,35.099581,32.749265
רשפים,RESHAFIM,437,צפון,35.47879,32.481235
רתמים,RETAMIM,1260,דרום,34.690902,31.05401
רבדים,REVADIM,564,דרום,34.814807,31.773966
רבבה,REVAVA,3795,צפון-מרכז,34.8559137,32.1768686
רביבים,REVIVIM,354,דרום,34.72108600000001,31.045195
רווחה,REWAHA,2051,דרום,34.733681,31.648695
רוויה,REWAYA,2016,צפון,35.473118,32.448638
רימונים,RIMMONIM,3565,מרכז,34.851612,31.046051
רינתיה,RINNATYA,616,מרכז,34.928477,32.044365
ראשון לציון,RISHON LEZIYYON,8300,מרכז,34.8020886,31.95908129999999
רשפון,RISHPON,247,צפון-מרכז,34.824723,32.201856
רועי,RO'I,3619,צפון,34.851612,31.046051
ראש העין,ROSH HAAYIN,2640,מרכז,34.952177,32.095838
ראש פינה,ROSH PINNA,26,צפון,35.5428591,32.9690188
ראש צורים,ROSH ZURIM,3602,מרכז,35.125288,31.66779099999999
רותם,ROTEM,3782,מרכז,35.518576,32.3366
רוח מדבר,RUAH MIDBAR,1341,דרום,34.733883,30.98153499999999
רוחמה,RUHAMA,362,דרום,34.705165,31.497378
רומת הייב,RUMAT HEIB,997,צפון,35.305683,32.777591
רומאנה,RUMMANE,539,צפון,35.311211,32.788118
סעד,SA'AD,419,דרום,34.534356,31.47018499999999
סער,SA'AR,454,צפון,35.109232,33.028689
סעוה,SA'WA,1360,דרום,34.975564,31.261071
סאג'ור,SAJUR,525,צפון,35.3417247,32.9428596
סח'נין,SAKHNIN,7500,צפון,35.2996234,32.8621403
סלעית,SAL'IT,3567,מרכז,35.051258,32.242589
סלמה,SALLAMA,1245,צפון,35.370499,32.893248
סמר,SAMAR,1156,דרום,35.022204,29.833968
צנדלה,SANDALA,636,צפון,35.32442,32.522449
ספיר,SAPPIR,1176,דרום,35.184144,30.613623
שריד,SARID,126,צפון,35.224755,32.663059
סאסא,SASA,578,צפון,35.394569,33.02866
סביון,SAVYON,587,מרכז,34.8758182,32.0447034
סואעד,SAWA'ID,989,צפון,35.16832400000001,32.766904
סייד,SAYYID,1170,דרום,34.851612,31.046051
שדי אברהם,SEDE AVRAHAM,1223,דרום,34.335692,31.211594
שדה בוקר,SEDE BOQER,885,דרום,34.793098,30.873611
שדה דוד,SEDE DAWID,36,דרום,34.683443,31.577476
שדה אליעזר,SEDE ELI'EZER,861,צפון,35.56525,33.04647
שדה אליהו,SEDE ELIYYAHU,304,צפון,35.513803,32.441882
שדי חמד,SEDE HEMED,2015,מרכז,34.9428062,32.158488
שדה אילן,SEDE ILAN,721,צפון,35.422429,32.75051
שדה משה,SEDE MOSHE,18,דרום,34.800427,31.610982
שדה נחום,SEDE NAHUM,259,צפון,35.480855,32.525068
שדה נחמיה,SEDE NEHEMYA,329,צפון,35.62307,33.188234
שדה ניצן,SEDE NIZZAN,1058,דרום,34.418363,31.230035
שדי תרומות,SEDE TERUMOT,2057,צפון,35.484204,32.440898
שדה עוזיהו,SEDE UZZIYYAHU,739,דרום,34.678194,31.758437
שדה ורבורג,SEDE WARBURG,284,מרכז,34.90325,32.208691
שדה יעקב,SEDE YA'AQOV,142,צפון,35.141315,32.69756
שדה יצחק,SEDE YIZHAQ,2008,צפון,34.992168,32.404959
שדה יואב,SEDE YO'AV,293,דרום,34.676849,31.645723
שדה צבי,SEDE ZEVI,2049,דרום,34.713234,31.448747
שדרות,SEDEROT,1031,דרום,34.595581,31.52269399999999
שדות מיכה,SEDOT MIKHA,27,דרום-מרכז,34.920683,31.721354
שדות ים,SEDOT YAM,327,צפון,34.89315,32.492613
שגב שלום,SEGEV-SHALOM,1286,דרום,34.8383843,31.19711719999999
סגולה,SEGULA,2046,דרום,34.778426,31.66954599999999
שניר,SENIR,1132,צפון,34.872536,31.954938
שעב,SHA'AB,538,צפון,35.2404921,32.890853
שעל,SHA'AL,4009,צפון,35.718816,33.11653
שעלבים,SHA'ALVIM,856,מרכז,34.984304,31.870235
שער אפרים,SHA'AR EFRAYIM,661,צפון-מרכז,34.999448,32.290662
שער העמקים,SHA'AR HAAMAQIM,237,צפון,35.110601,32.722621
שער הגולן,SHA'AR HAGOLAN,264,צפון,35.604656,32.686919
שער מנשה,SHA'AR MENASHE,921,צפון,35.0109759,32.4438777
שער שומרון,SHA'AR SHOMRON,3826,מרכז,35.3027226,32.422877
שדמות דבורה,SHADMOT DEVORA,306,צפון,35.43641,32.696245
שדמות מחולה,SHADMOT MEHOLA,3578,צפון,35.530587,32.347731
שפיר,SHAFIR,692,דרום,34.728135,31.697841
שחר,SHAHAR,7,דרום,34.723746,31.618235
שחרית,SHAHARIT,3868,צפון-מרכז,34.851612,31.046051
שחרות,SHAHARUT,1266,דרום,34.999173,29.904093
שלווה במדבר,SHALVA BAMIDBAR,1373,דרום,35.2772213,30.767942
שלווה,SHALWA,873,דרום,34.766832,31.563697
שמרת,SHAMERAT,432,צפון,35.094955,32.95148
שמיר,SHAMIR,366,צפון,35.659949,33.166754
שני,SHANI,1287,דרום,35.070097,31.355797
שקד,SHAQED,3649,צפון,35.168448,32.473745
שרונה,SHARONA,292,צפון,35.467726,32.726482
שרשרת,SHARSHERET,398,דרום,34.604397,31.404819
שבי דרום,SHAVE DAROM,1377,דרום,34.638576,31.46637699999999
שבי שומרון,SHAVE SHOMERON,3571,צפון-מרכז,35.183444,32.26372
שבי ציון,SHAVE ZIYYON,282,צפון,35.083005,32.982079
שאר ישוב,SHE'AR YASHUV,324,צפון,35.6468357,33.2263492
שדמה,SHEDEMA,555,מרכז,34.74009,31.833778
שפרעם,SHEFAR'AM,8800,צפון,35.1732997,32.8035805
שפיים,SHEFAYIM,232,צפון-מרכז,34.822409,32.216586
שפר,SHEFER,846,צפון,35.437848,32.944553
שייח' דנון,SHEIKH DANNUN,658,צפון,35.14856839999999,32.9938295
שכניה,SHEKHANYA,1160,צפון,35.246701,32.849186
שלומי,SHELOMI,812,צפון,35.145945,33.072609
שלוחות,SHELUHOT,439,צפון,35.480488,32.472608
שקף,SHEQEF,1233,דרום,34.937318,31.51489
שתולה,SHETULA,1045,צפון,35.315627,33.085919
שתולים,SHETULIM,763,דרום,34.684409,31.773687
שיזף,SHEZAF,1378,דרום,34.765444,31.001742
שזור,SHEZOR,527,צפון,35.354523,32.933936
שיבולים,SHIBBOLIM,865,דרום,34.608144,31.396398
שבלי אום אל-גנם,SHIBLI,913,צפון,35.396944,32.684167
שילת,SHILAT,1165,מרכז,35.014572,31.921173
שילה,SHILO,3641,מרכז,34.7701584,32.0648162
שמעה,SHIM'A,3784,מרכז,35.012699,31.387342
שמשית,SHIMSHIT,1337,צפון,35.246518,32.732527
נאות סמדר,SHIZZAFON,1197,דרום,35.028106,30.049079
שלומית,SHLOMIT,1364,דרום,34.3033322,31.1673893
שואבה,SHO'EVA,741,דרום-מרכז,35.079003,31.799369
שוהם,SHOHAM,1304,מרכז,34.9463162,31.9940912
שומרה,SHOMERA,614,צפון,35.28196200000001,33.08247
שומריה,SHOMERIYYA,1265,דרום,34.88409499999999,31.432154
שוקדה,SHOQEDA,415,דרום,34.524383,31.422098
שורשים,SHORASHIM,1235,צפון,35.25856,32.892651
שורש,SHORESH,456,דרום-מרכז,35.06529700000001,31.797488
שושנת העמקים,SHOSHANNAT HAAMAQIM,224,צפון-מרכז,34.856814,32.354794
צוקי ים,SHOSHANNAT HAAMAQIM(,1102,צפון-מרכז,34.858542,32.360122
שובל,SHOVAL,394,דרום,34.745814,31.413734
שובה,SHUVA,761,דרום,34.545496,31.44995
סתריה,SITRIYYA,610,מרכז,34.842094,31.889854
סופה,SUFA,1238,דרום,34.341987,31.238309
סולם,SULAM,526,צפון,34.851612,31.046051
סוסיה,SUSEYA,3756,מרכז,35.183819,32.534645
תעוז,TA'OZ,752,דרום-מרכז,34.975619,31.802162
טל שחר,TAL SHAHAR,462,דרום-מרכז,34.903272,31.804404
טל אל,TAL-EL,1181,צפון,35.182499,32.927306
"תלמי ביל""ו",TALME BILU,2050,דרום,34.644823,31.438055
תלמי אלעזר,TALME EL'AZAR,2003,צפון,34.974991,32.447228
תלמי אליהו,TALME ELIYYAHU,1051,דרום,34.429114,31.229611
תלמי יפה,TALME YAFE,744,דרום,34.612482,31.616857
תלמי יחיאל,TALME YEHI'EL,727,דרום,34.764308,31.753621
תלמי יוסף,TALME YOSEF,1237,דרום,34.363751,31.199958
טלמון,TALMON,3788,מרכז,34.851612,31.046051
טמרה,TAMRA,8900,צפון,35.1859141,32.8552512
תראבין א צאנע,TARABIN AS-SANI,970,דרום,34.739126,31.345481
תרום,TARUM,778,דרום-מרכז,34.980238,31.783306
טייבה,TAYIBE,2730,צפון-מרכז,35.0096545,32.2668407
תאשור,TE'ASHUR,2062,דרום,34.643547,31.371709
טפחות,TEFAHOT,1214,צפון,35.422204,32.868562
תל עדשים,TEL ADASHIM,103,צפון,35.302478,32.657358
תל אביב יפו,TEL AVIV-YAFO,5000,מרכז,34.78176759999999,32.0852999
תל מונד,TEL MOND,154,צפון-מרכז,34.9205712,32.2567936
תל קציר,TEL QAZIR,719,צפון,35.61786,32.706396
תל שבע,TEL SHEVA,1054,דרום,34.8603822,31.2450731
תל תאומים,TEL TE'OMIM,1283,צפון,35.496409,32.442537
תל ציון,TEL TSIYON,3815,מרכז,35.239097,31.880377
תל יצחק,TEL YIZHAQ,287,צפון-מרכז,34.872378,32.252745
תל יוסף,TEL YOSEF,84,צפון,35.398914,32.556704
טללים,TELALIM,1177,דרום,34.771261,30.991511
תלמים,TELAMIM,814,דרום,34.67199799999999,31.563416
תלם,TELEM,3719,מרכז,35.03124,31.563051
טנא,TENE,3743,דרום,34.957383,31.376132
תנובות,TENUVOT,2002,צפון-מרכז,34.962586,32.305863
תקוע,TEQOA,3563,מרכז,35.21249,31.639093
תקומה,TEQUMA,665,דרום,34.578085,31.448536
טבריה,TIBERIAS,6700,צפון,35.530973,32.795859
תדהר,TIDHAR,2061,דרום,34.630364,31.37885799999999
תפרח,TIFRAH,709,דרום,34.679236,31.324471
תימורים,TIMMORIM,163,דרום,34.761356,31.716336
תמרת,TIMRAT,1244,צפון,35.225489,32.703801
טירת כרמל,TIRAT KARMEL,2100,צפון,34.97298,32.762127
טירת יהודה,TIRAT YEHUDA,663,מרכז,34.935878,32.014833
טירת צבי,TIRAT ZEVI,268,צפון,35.52832,32.422486
טירה,TIRE,2720,צפון-מרכז,34.9518076,32.2352263
תירוש,TIROSH,10,דרום-מרכז,34.885915,31.750347
תומר,TOMER,3558,צפון,34.851612,31.046051
רמת טראמפ,TRUMP HEIGHTS,4029,צפון,34.851612,31.046051
טובא זנגריה,TUBA-ZANGARIYYE,962,צפון,35.592018,32.96621
טורעאן,TUR'AN,498,צפון,35.3746247,32.776688
תושיה,TUSHIYYA,1083,דרום,34.541314,31.432895
תובל,TUVAL,1172,צפון,35.245675,32.928495
אודים,UDIM,446,צפון-מרכז,34.846995,32.266865
אום אל פחם,UMM AL-FAHM,2710,צפון,35.148529,32.517127
אום אל קוטוף,UMM AL-QUTUF,2024,צפון,35.059149,32.468084
אום בטין,UMM BATIN,1358,דרום,34.8829215,31.27674369999999
עוקבי,UQBI,957,דרום,34.930794,31.283211
אורים,URIM,403,דרום,34.524868,31.304094
אושה,USHA,278,צפון,35.114584,32.796458
עוזה,UZA,826,דרום,34.764524,31.593042
עוזייר,UZEIR,528,צפון,35.326882,32.790614
ורדון,WARDON,1133,דרום,34.781766,31.663823
ורד יריחו,WERED YERIHO,3639,מרכז,35.432139,31.826192
יעד,YA'AD,1138,צפון,35.24064,32.881225
יערה,YA'ARA,795,צפון,35.18608,33.068013
יעל,YA'EL,1117,צפון,35.306548,32.552064
יד בנימין,YAD BINYAMIN,577,מרכז,34.82037,31.796685
יד חנה,YAD HANNA,758,צפון-מרכז,35.006692,32.325311
יד השמונה,YAD HASHEMONA,1134,מרכז,35.089617,31.80955
יד מרדכי,YAD MORDEKHAY,358,דרום,34.5575,31.586963
יד נתן,YAD NATAN,775,דרום,34.704874,31.652961
"יד רמב""ם",YAD RAMBAM,64,מרכז,34.900086,31.899841
יפיע,YAFI,499,צפון,35.28201,32.695002
יפית,YAFIT,3566,צפון,34.851612,31.046051
יגל,YAGEL,798,מרכז,34.880262,31.987792
יגור,YAGUR,96,צפון,35.076826,32.741532
יהל,YAHEL,1158,דרום,35.128393,30.084234
יכיני,YAKHINI,811,דרום,34.598634,31.482205
יאנוח ג'ת,YANUH-JAT,1295,צפון,35.241169,32.981568
ינוב,YANUV,753,צפון-מרכז,34.951384,32.307431
יקיר,YAQIR,3647,צפון-מרכז,34.851612,31.046051
יקום,YAQUM,417,צפון-מרכז,34.84190299999999,32.249196
ירדנה,YARDENA,2026,צפון,35.565978,32.565357
ירחיב,YARHIV,718,מרכז,34.967992,32.151536
ירקונה,YARQONA,183,מרכז,34.897882,32.144524
יסעור,YAS'UR,575,צפון,35.166641,32.901145
ישרש,YASHRESH,828,מרכז,34.847337,31.915667
יתד,YATED,1227,דרום,34.326126,31.207042
יבנה,YAVNE,2660,מרכז,34.7350096,31.87535339999999
יבנאל,YAVNE'EL,46,צפון,35.5062245,32.7037641
יציץ,YAZIZ,759,מרכז,34.861903,31.863226
יעף,YE'AF,1044,צפון-מרכז,34.967425,32.268254
ידידה,YEDIDA,1144,מרכז,35.104639,31.812281
כפר ידידיה,YEDIDYA,233,צפון-מרכז,34.899038,32.344902
יחיעם,YEHI'AM,409,צפון,35.22109100000001,32.996109
יהוד מונוסון,YEHUD-MONOSON,9400,מרכז,34.8925712,32.0315718
ירוחם,YEROHAM,831,דרום,34.9310463,30.9871778
ישע,YESHA,916,דרום,34.403091,31.247595
יסודות,YESODOT,440,מרכז,34.86563599999999,31.815835
יסוד המעלה,YESUD HAMA'ALA,29,צפון,35.589013,33.05358
יבול,YEVUL,1232,דרום,34.318952,31.189458
יפעת,YIF'AT,134,צפון,35.223982,32.675853
יפתח,YIFTAH,453,צפון,35.55202999999999,33.128346
ינון,YINNON,2011,דרום,34.780947,31.741832
יראון,YIR'ON,623,צפון,35.454291,33.077239
ירכא,YIRKA,502,צפון,35.21199,32.953492
ישעי,YISH'I,805,דרום-מרכז,34.962586,31.752969
"ייט""ב",YITAV,3607,צפון,34.851612,31.046051
יצהר,YIZHAR,3749,צפון-מרכז,34.851612,31.046051
יזרעאל,YIZRE'EL,452,צפון,35.319425,32.562589
יודפת,YODEFAT,1112,צפון,35.271481,32.836596
יונתן,YONATAN,4007,צפון,35.795468,32.93966
יקנעם עילית,YOQNE'AM ILLIT,240,צפון,35.104606,32.660225
יקנעם,YOQNE'AM,241,צפון,35.104606,32.660225
יושיביה,YOSHIVYA,803,דרום,34.608784,31.444699
יטבתה,YOTVATA,866,דרום,35.059227,29.896322
יובל,YUVAL,2009,צפון,35.597063,33.246577
יובלים,YUVALIM,1226,צפון,35.269294,32.878163
זבארגה,ZABARGA,2742,דרום,35.03419,31.236449
צפרירים,ZAFRIRIM,1079,דרום-מרכז,34.944326,31.659618
צפריה,ZAFRIYYA,594,מרכז,34.854664,32.004315
זנוח,ZANOAH,816,דרום-מרכז,34.999369,31.733813
זרזיר,ZARZIR,975,צפון,35.2157215,32.7268837
זבדיאל,ZAVDI'EL,815,דרום,34.7602609,31.6592451
צאלים,ZE'ELIM,413,דרום,34.533359,31.203909
צפת,ZEFAT,8000,צפון,35.495997,32.964648
זכריה,ZEKHARYA,799,דרום-מרכז,34.944708,31.708812
צלפון,ZELAFON,796,דרום-מרכז,34.931797,31.805599
זמר,ZEMER,1290,צפון-מרכז,35.0329957,32.3675163
זרחיה,ZERAHYA,818,דרום,34.746419,31.681742
זרועה,ZERU'A,2064,דרום,34.624161,31.459133
צרופה,ZERUFA,612,צפון,34.946455,32.647822
זיתן,ZETAN,788,מרכז,34.891732,31.975178
זכרון יעקב,ZIKHRON YA'AQOV,9300,צפון,34.9520929,32.5739532
זמרת,ZIMRAT,1065,דרום,34.552288,31.447853
ציפורי,ZIPPORI,613,צפון,35.276351,32.746748
זיקים,ZIQIM,584,דרום,34.520968,31.607204
צבעון,ZIV'ON,1213,צפון,35.416723,33.026363
צופר,ZOFAR,1150,דרום,35.181474,30.559394
צופית,ZOFIT,198,מרכז,34.920085,32.19488
צופיה,ZOFIYYA,1111,מרכז,34.920085,32.19488
צוחר,ZOHAR,1136,דרום,34.426444,31.23717
זוהר,ZOHAR,44,דרום,34.692362,31.595592
צרעה,ZOR'A,567,דרום-מרכז,34.966931,31.762653
צובה,ZOVA,465,דרום-מרכז,35.117952,31.78435199999999
צופים,ZUFIN,3791,מרכז,35.008912,32.197318
צור הדסה,ZUR HADASSA,1113,דרום-מרכז,35.096958,31.719374
צור משה,ZUR MOSHE,276,צפון-מרכז,34.913117,32.298911
צור נתן,ZUR NATAN,1148,מרכז,35.01402,32.239673
צור יצחק,ZUR YIZHAQ,1345,מרכז,34.997998,32.241478
צוריאל,ZURI'EL,774,צפון,35.31479,33.006488
צורית,ZURIT,1221,צפון,35.249106,32.902351
צביה,ZVIYYA,1180,צפון,35.330599,32.889006